[
  {
    "title": "Поморка",
    "id": 0,
    "web": "www.pomorka.ru",
    "address": "ул. Поморская, 48А стр. 8, Москва",
    "phone": "8 (495) 748-88-52",
    "about": "Наш автосервис работает с 2002 года. История сервиса берет свое начинало с небольшого гаража в городе Долгопрудный, в котором была мастерская по ремонту и продаже",
    "coord": {"lat": 55.870601, "long": 37.572088},
    "chat": true
  },
  {
    "title": "Техцентр Сервис-Авто ООО",
    "id": 1,
    "web": "servavto.ru",
    "address": "Москворечье ул., 2Ж, Москва",
    "phone": "8 (495) 725-42-35",
    "about": "Сервис основан в 1992 году и по сей день с успехом оказывает услуги в области диагностики, ремонта, продажи запасных частей. Мы специализируемся на постгарантийном ремонте автомобилей Мазда и Форд.",
    "coord": {"lat": 55.651146, "long": 37.642388},
    "chat": true
  },
  {
    "title": "Автосервис 'Точка Ф'",
    "id": 2,
    "web": "www.ford-am.ru",
    "address": "Автомобильный пр-д, 4, Москва",
    "phone": "8 (495) 983-08-90",
    "about": "Мы сделали наш клубный автосервис Форд, потому, что устали от наплевательского отношения к своим железным коням у всякого рода проходимцев.",
    "coord": {"lat": 55.730248, "long": 37.698259},
    "chat": true
  },
  {
    "title": "MosVag, автотехцентр",
    "id": 3,
    "web": "www.mosvag.ru",
    "address": "Кронштадтский б-р, 35б, Москва",
    "phone": "8 (495) 984-77-97",
    "about": "Работаем в области оказания услуг по обслуживанию автотранспортных средств и успешно развивается с 1998 года.",
    "coord": {"lat": 55.847642, "long":  37.504670},
    "chat": false
  },
  {
    "title": "Техцентр на Войковской",
    "id": 4,
    "web": "",
    "address": "Ленинградское ш., 18, Москва",
    "phone": "8(495)664-32-72",
    "about": "Наш автосервис выполняет любые работы, связанные с ремонтом автомобилей. Широкий спектр услуг и гибкая ценовая политика.",
    "coord": {"lat": 55.823799, "long": 37.495561},
    "chat": true
  },
  {
    "title": "Кузовной цех ЯузаМоторс",
    "id": 5,
    "web": "yauzamotors-auto.ru",
    "address": "Москва, Волгоградский проспект, 32к11",
    "phone": "",
    "about": "Кузов — это одна из наиболее часто ремонтируемых частей автомобиля. Кузовные элементы, наряду со стеклянными, в первую очередь повреждаются в авариях.",
    "coord": {"lat": 55.722782, "long": 37.692054},
    "chat": true
  }
]